$GPGGA,100148.000,3045.2740,N,10355.6777,E,1,5,2.00,541.2,M,-32.1,M,,*78
$GPGSA,A,3,30,32,23,20,16,,,,,,,,2.23,2.00,0.99*05
$GPGSV,3,1,11,16,74,241,17,30,73,013,17,32,41,235,24,31,39,057,*71
$GPGSV,3,2,11,20,33,267,17,06,33,158,,23,30,318,26,03,26,175,*7D
$GPGSV,3,3,11,14,17,132,,29,11,044,,13,01,316,*46
$GPRMC,100148.000,A,3045.2740,N,10355.6777,E,1.46,105.86,050412,,,A*69
$GPGGA,100149.000,3045.2741,N,10355.6784,E,1,5,2.00,541.2,M,-32.1,M,,*74
$GPGSA,A,3,30,32,23,20,16,,,,,,,,2.23,2.00,0.99*05
$GPGSV,3,1,11,16,74,241,17,30,73,013,17,32,41,235,24,31,39,057,*71
$GPGSV,3,2,11,20,33,267,16,06,33,158,,23,30,318,26,03,26,175,*7C
$GPGSV,3,3,11,14,17,132,,29,11,044,,13,01,316,*46
$GPRMC,100149.000,A,3045.2741,N,10355.6784,E,1.30,88.10,050412,,,A*5F
$GPGGA,100150.000,3045.2741,N,10355.6791,E,1,5,2.00,541.3,M,-32.1,M,,*79
$GPGSA,A,3,30,32,23,20,16,,,,,,,,2.23,2.00,0.99*05
$GPGSV,3,1,11,16,74,241,17,30,73,013,17,32,41,235,24,31,39,057,*71
$GPGSV,3,2,11,20,33,267,16,06,33,158,,23,30,318,26,03,26,175,*7C
$GPGSV,3,3,11,14,17,132,,29,11,044,,13,01,316,*46
$GPRMC,100150.000,A,3045.2741,N,10355.6791,E,1.33,88.90,050412,,,A*58
$GPGGA,100151.000,3045.2739,N,10355.6799,E,1,5,2.00,541.3,M,-32.1,M,,*7F
$GPGSA,A,3,30,32,23,20,16,,,,,,,,2.23,2.00,0.99*05
$GPGSV,3,1,11,16,74,241,17,30,73,013,17,32,41,235,24,31,39,057,*71
$GPGSV,3,2,11,20,33,267,17,06,33,158,,23,30,318,26,03,26,175,*7D
$GPGSV,3,3,11,14,17,132,,29,11,044,,13,02,316,*45
$GPRMC,100151.000,A,3045.2739,N,10355.6799,E,1.58,91.22,050412,,,A*52
$GPGGA,100152.000,3045.2739,N,10355.6805,E,1,5,2.00,541.4,M,-32.1,M,,*71
$GPGSA,A,3,30,32,23,20,16,,,,,,,,2.23,2.00,0.99*05
$GPGSV,3,1,11,16,74,241,16,30,73,013,17,32,41,235,24,31,39,057,*70
$GPGSV,3,2,11,20,33,267,16,06,33,158,,23,30,318,26,03,26,175,*7C
$GPGSV,3,3,11,14,17,132,,29,11,044,,13,02,316,*45
$GPRMC,100152.000,A,3045.2739,N,10355.6805,E,1.35,93.18,050412,,,A*5B
$GPGGA,100153.000,3045.2738,N,10355.6810,E,1,5,2.00,541.5,M,-32.1,M,,*74
$GPGSA,A,3,30,32,23,20,16,,,,,,,,2.23,2.00,0.99*05
$GPGSV,3,1,11,16,74,241,16,30,73,013,16,32,41,235,24,31,39,057,*71
$GPGSV,3,2,11,20,33,267,17,06,33,158,,23,30,318,26,03,26,175,*7D
$GPGSV,3,3,11,14,17,132,,29,11,044,,13,02,316,*45
$GPRMC,100153.000,A,3045.2738,N,10355.6810,E,1.41,95.32,050412,,,A*52
$GPGGA,100154.000,3045.2739,N,10355.6815,E,1,5,2.00,541.6,M,-32.1,M,,*74
$GPGSA,A,3,30,32,23,20,16,,,,,,,,2.23,2.00,0.99*05
$GPGSV,3,1,11,16,74,242,16,30,73,013,16,32,41,235,24,31,39,057,*72
$GPGSV,3,2,11,20,33,267,17,06,33,158,,23,30,318,26,03,26,175,*7D
$GPGSV,3,3,11,14,17,132,,29,11,044,,13,02,316,*45
$GPRMC,100154.000,A,3045.2739,N,10355.6815,E,1.45,101.77,050412,,,A*68
$GPGGA,100155.000,3045.2738,N,10355.6818,E,1,5,2.00,541.6,M,-32.1,M,,*79
$GPGSA,A,3,30,32,23,20,16,,,,,,,,2.23,2.00,0.99*05
$GPGSV,3,1,11,16,74,242,16,30,73,013,16,32,41,235,24,31,39,057,*72
$GPGSV,3,2,11,20,33,267,15,06,33,158,,23,30,318,26,03,26,175,*7F
$GPGSV,3,3,11,14,17,132,,29,11,044,,13,02,316,*45
$GPRMC,100155.000,A,3045.2738,N,10355.6818,E,1.89,102.48,050412,,,A*6A
$GPGGA,100156.000,3045.2740,N,10355.6818,E,1,5,2.00,541.7,M,-32.1,M,,*74
$GPGSA,A,3,30,32,23,20,16,,,,,,,,2.23,2.00,0.99*05
$GPGSV,3,1,11,16,74,242,16,30,73,013,16,32,41,235,24,31,39,057,*72
$GPGSV,3,2,11,20,33,267,16,06,33,158,,23,30,318,26,03,26,175,*7C
$GPGSV,3,3,11,14,17,132,,29,11,044,,13,02,316,*45
$GPRMC,100156.000,A,3045.2740,N,10355.6818,E,1.41,101.54,050412,,,A*6C
$GPGGA,100157.000,3045.2745,N,10355.6816,E,1,5,2.00,541.8,M,-32.1,M,,*71
$GPGSA,A,3,30,32,23,20,16,,,,,,,,2.23,2.00,0.99*05
$GPGSV,3,1,11,16,74,242,16,30,73,013,16,32,41,235,24,31,39,057,*72
$GPGSV,3,2,11,20,33,267,17,06,33,158,,23,30,318,26,03,26,175,*7D
$GPGSV,3,3,11,14,17,132,,29,11,044,,13,02,316,*45
$GPRMC,100157.000,A,3045.2745,N,10355.6816,E,1.33,59.46,050412,,,A*5C
$GPGGA,100158.000,3045.2749,N,10355.6820,E,1,5,2.00,541.9,M,-32.1,M,,*76
$GPGSA,A,3,30,32,23,20,16,,,,,,,,2.23,2.00,0.99*05
$GPGSV,3,1,11,16,74,242,17,30,73,013,16,32,41,235,24,31,39,057,*73
$GPGSV,3,2,11,20,33,267,16,06,33,158,,23,30,318,26,03,26,175,*7C
$GPGSV,3,3,11,14,17,132,,29,11,044,,13,02,316,*45
$GPRMC,100158.000,A,3045.2749,N,10355.6820,E,1.77,57.78,050412,,,A*59
$GPGGA,100159.000,3045.2752,N,10355.6812,E,1,4,2.31,542.0,M,-32.1,M,,*75
$GPGSA,A,3,30,32,23,16,,,,,,,,,2.52,2.31,0.99*03
$GPGSV,3,1,11,16,74,242,16,30,73,013,16,32,41,235,24,31,39,057,*72
$GPGSV,3,2,11,20,33,267,,06,33,158,,23,30,318,26,03,26,175,*7B
$GPGSV,3,3,11,14,17,132,,29,11,044,,13,02,316,*45
$GPRMC,100159.000,A,3045.2752,N,10355.6812,E,1.59,54.88,050412,,,A*53
$GPGGA,100200.000,3045.2755,N,10355.6797,E,1,4,2.31,542.2,M,-32.1,M,,*7D
$GPGSA,A,3,30,32,23,16,,,,,,,,,2.52,2.31,0.99*03
$GPGSV,3,1,11,16,74,242,14,30,73,013,16,32,41,235,24,31,39,057,*70
$GPGSV,3,2,11,20,33,267,,06,33,158,,23,30,318,26,03,26,175,*7B
$GPGSV,3,3,11,14,17,132,,29,11,044,,13,02,316,*45
$GPRMC,100200.000,A,3045.2755,N,10355.6797,E,1.37,63.54,050412,,,A*54
$GPGGA,100201.000,3045.2758,N,10355.6782,E,1,4,2.31,542.3,M,-32.1,M,,*74
$GPGSA,A,3,30,32,23,16,,,,,,,,,2.52,2.31,0.99*03
$GPGSV,3,1,11,16,74,242,17,30,73,013,16,32,41,235,24,31,39,057,*73
$GPGSV,3,2,11,20,33,267,,06,33,158,,23,30,318,25,03,26,175,*78
$GPGSV,3,3,11,14,17,132,,29,11,044,,13,02,316,*45
$GPRMC,100201.000,A,3045.2758,N,10355.6782,E,0.90,62.57,050412,,,A*52
$GPGGA,100202.000,3045.2760,N,10355.6762,E,1,4,2.31,542.5,M,-32.1,M,,*74
$GPGSA,A,3,30,32,23,16,,,,,,,,,2.52,2.31,0.99*03
$GPGSV,3,1,11,16,74,242,15,30,73,013,16,32,41,235,23,31,39,057,*76
$GPGSV,3,2,11,20,33,267,,06,33,158,,23,30,318,25,03,26,175,*78
$GPGSV,3,3,11,14,17,132,,29,11,044,,13,02,316,*45
$GPRMC,100202.000,A,3045.2760,N,10355.6762,E,0.33,62.57,050412,,,A*5D
$GPGGA,100203.000,3045.2759,N,10355.6755,E,1,4,2.31,543.3,M,-32.1,M,,*7C
$GPGSA,A,3,30,32,23,16,,,,,,,,,2.52,2.31,0.99*03
$GPGSV,3,1,11,16,74,242,15,30,73,013,17,32,41,235,23,31,39,057,*77
$GPGSV,3,2,11,20,33,267,,06,33,158,,23,30,318,25,03,26,175,*78
$GPGSV,3,3,11,14,17,132,,29,11,044,,13,02,316,*45
$GPRMC,100203.000,A,3045.2759,N,10355.6755,E,0.25,62.57,050412,,,A*55
$GPGGA,100204.000,3045.2759,N,10355.6747,E,1,4,2.31,544.1,M,-32.1,M,,*7D
$GPGSA,A,3,30,32,23,16,,,,,,,,,2.52,2.31,0.99*03
$GPGSV,3,1,11,16,74,242,15,30,73,013,18,32,41,235,23,31,39,057,*78
$GPGSV,3,2,11,20,33,267,,06,33,158,,23,30,318,25,03,26,175,*78
$GPGSV,3,3,11,14,17,132,,29,11,044,,13,02,316,*45
$GPRMC,100204.000,A,3045.2759,N,10355.6747,E,0.56,62.57,050412,,,A*55
$GPGGA,100205.000,3045.2759,N,10355.6738,E,1,4,2.31,544.9,M,-32.1,M,,*7C
$GPGSA,A,3,30,32,23,16,,,,,,,,,2.52,2.31,0.99*03
$GPGSV,3,1,11,16,74,242,14,30,73,013,19,32,41,235,22,31,39,057,*79
$GPGSV,3,2,11,20,33,267,,06,33,158,,23,30,318,25,03,26,175,*78
$GPGSV,3,3,11,14,17,132,,29,11,044,,13,02,316,*45
$GPRMC,100205.000,A,3045.2759,N,10355.6738,E,0.73,297.91,050412,,,A*69
$GPGGA,100206.000,3045.2759,N,10355.6698,E,1,4,2.31,545.1,M,-32.1,M,,*7D
$GPGSA,A,3,30,32,23,16,,,,,,,,,2.52,2.31,0.99*03
$GPGSV,3,1,11,16,74,242,14,30,73,013,20,32,41,235,22,31,39,057,*73
$GPGSV,3,2,11,20,33,267,,06,33,158,,23,30,318,24,03,26,175,*79
$GPGSV,3,3,11,14,17,132,,29,11,044,,13,02,316,*45
$GPRMC,100206.000,A,3045.2759,N,10355.6698,E,1.04,294.90,050412,,,A*62
$GPGGA,100207.000,3045.2760,N,10355.6694,E,1,3,3.84,544.8,M,-32.1,M,,*7A
$GPGSA,A,2,32,23,16,,,,,,,,,,3.97,3.84,1.00*07
$GPGSV,3,1,11,16,74,242,14,30,73,013,,32,41,235,21,31,39,057,*72
$GPGSV,3,2,11,20,33,267,,06,33,158,,23,30,318,24,03,26,175,*79
$GPGSV,3,3,11,14,17,132,,29,11,044,,13,02,316,*45
$GPRMC,100207.000,A,3045.2760,N,10355.6694,E,0.99,290.93,050412,,,A*67
$GPGGA,100208.000,3045.2762,N,10355.6686,E,1,3,3.84,544.5,M,-32.1,M,,*79
$GPGSA,A,2,32,23,16,,,,,,,,,,3.97,3.84,1.00*07
$GPGSV,3,1,11,16,74,242,14,30,72,014,,32,41,235,21,31,39,057,*74
$GPGSV,3,2,11,20,33,267,,06,33,158,,23,30,318,24,03,26,175,*79
$GPGSV,3,3,11,14,17,132,,29,11,044,,13,02,316,*45
$GPRMC,100208.000,A,3045.2762,N,10355.6686,E,1.03,287.79,050412,,,A*69
$GPGGA,100209.000,3045.2763,N,10355.6682,E,1,3,3.84,544.3,M,-32.1,M,,*7B
$GPGSA,A,2,32,23,16,,,,,,,,,,3.97,3.84,1.00*07
$GPGSV,3,1,11,16,74,242,13,30,72,014,,32,41,235,21,31,38,057,*72
$GPGSV,3,2,11,20,33,267,,06,33,158,,23,30,318,24,03,26,175,*79
$GPGSV,3,3,11,14,17,132,,29,11,044,,13,02,316,*45
$GPRMC,100209.000,A,3045.2763,N,10355.6682,E,0.97,284.97,050412,,,A*62
$GPGGA,100210.000,3045.2766,N,10355.6675,E,1,3,3.84,544.1,M,-32.1,M,,*7C
$GPGSA,A,2,32,23,16,,,,,,,,,,3.97,3.84,1.00*07
$GPGSV,3,1,11,16,74,242,11,30,72,014,,32,41,234,21,31,38,057,*71
$GPGSV,3,2,11,20,33,267,,06,33,158,,23,30,318,23,03,26,175,*7E
$GPGSV,3,3,11,14,17,132,,29,11,044,,13,02,316,*45
$GPRMC,100210.000,A,3045.2766,N,10355.6675,E,1.19,281.35,050412,,,A*6D
$GPGGA,100211.000,3045.2769,N,10355.6668,E,1,3,3.84,543.9,M,-32.1,M,,*71
$GPGSA,A,2,32,23,16,,,,,,,,,,3.97,3.84,1.00*07
$GPGSV,3,1,11,16,74,242,14,30,72,014,,32,41,234,21,31,38,057,*74
$GPGSV,3,2,11,20,33,267,,06,33,158,,23,30,318,22,03,26,175,*7F
$GPGSV,3,3,11,14,17,132,,29,11,044,,13,02,316,*45
$GPRMC,100211.000,A,3045.2769,N,10355.6668,E,1.22,290.40,050412,,,A*65
$GPGGA,100212.000,3045.2771,N,10355.6663,E,1,3,3.84,543.8,M,-32.1,M,,*71
$GPGSA,A,2,32,23,16,,,,,,,,,,3.97,3.84,1.00*07
$GPGSV,3,1,11,16,74,242,14,30,72,014,,32,41,234,21,31,38,057,*74
$GPGSV,3,2,11,20,33,267,,06,33,158,,23,30,318,22,03,26,175,*7F
$GPGSV,3,3,11,14,17,132,,29,11,044,,13,02,316,*45
$GPRMC,100212.000,A,3045.2771,N,10355.6663,E,0.98,292.77,050412,,,A*62
$GPGGA,100213.000,3045.2773,N,10355.6658,E,1,3,3.84,543.6,M,-32.1,M,,*74
$GPGSA,A,2,32,23,16,,,,,,,,,,3.97,3.84,1.00*07
$GPGSV,3,1,11,16,74,242,12,30,72,014,,32,41,234,21,31,38,057,*72
$GPGSV,3,2,11,20,33,267,,06,33,158,,23,30,318,22,03,26,175,*7F
$GPGSV,3,3,11,14,17,132,,29,11,044,,13,02,316,*45
$GPRMC,100213.000,A,3045.2773,N,10355.6658,E,1.00,294.98,050412,,,A*6E
$GPGGA,100214.000,3045.2773,N,10355.6651,E,1,3,3.84,543.5,M,-32.1,M,,*79
$GPGSA,A,2,32,23,16,,,,,,,,,,3.97,3.84,1.00*07
$GPGSV,3,1,11,16,74,242,11,30,72,014,,32,41,234,20,31,38,057,*70
$GPGSV,3,2,11,20,33,267,,06,33,158,,23,30,318,21,03,26,175,*7C
$GPGSV,3,3,11,14,17,132,,29,11,044,,13,02,316,*45
$GPRMC,100214.000,A,3045.2773,N,10355.6651,E,0.99,280.46,050412,,,A*67
$GPGGA,100215.000,3045.2776,N,10355.6648,E,1,3,3.84,543.4,M,-32.1,M,,*74
$GPGSA,A,2,32,23,16,,,,,,,,,,3.97,3.84,1.00*07
$GPGSV,3,1,11,16,74,242,12,30,72,014,,32,41,234,20,31,38,057,*73
$GPGSV,3,2,11,20,33,267,,06,33,158,,23,30,318,21,03,26,175,*7C
$GPGSV,3,3,11,14,17,132,,29,11,044,,13,02,316,*45
$GPRMC,100215.000,A,3045.2776,N,10355.6648,E,0.78,304.03,050412,,,A*68
$GPGGA,100216.000,3045.2778,N,10355.6644,E,1,3,3.84,543.3,M,-32.1,M,,*72
$GPGSA,A,2,32,23,16,,,,,,,,,,3.97,3.84,1.00*07
$GPGSV,3,1,11,16,74,242,14,30,72,014,,32,41,234,20,31,38,057,*75
$GPGSV,3,2,11,20,33,267,,06,33,158,,23,30,318,21,03,26,175,*7C
$GPGSV,3,3,11,14,17,132,,29,11,044,,13,02,316,*45
$GPRMC,100216.000,A,3045.2778,N,10355.6644,E,0.72,319.34,050412,,,A*6B
$GPGGA,100217.000,3045.2782,N,10355.6641,E,1,3,3.84,543.2,M,-32.1,M,,*72
$GPGSA,A,2,32,23,16,,,,,,,,,,3.97,3.84,1.00*07
$GPGSV,3,1,11,16,74,242,13,30,72,014,,32,41,234,20,31,38,057,*72
$GPGSV,3,2,11,20,33,267,,06,33,158,,23,30,318,21,03,26,175,*7C
$GPGSV,3,3,11,14,17,132,,29,11,044,,13,02,316,*45
$GPRMC,100217.000,A,3045.2782,N,10355.6641,E,0.91,335.91,050412,,,A*66
$GPGGA,100218.000,3045.2787,N,10355.6635,E,1,3,3.84,543.1,M,-32.1,M,,*78
$GPGSA,A,2,32,23,16,,,,,,,,,,3.97,3.84,1.00*07
$GPGSV,3,1,11,16,74,242,13,30,72,014,,32,41,234,20,31,38,057,*72
$GPGSV,3,2,11,20,33,267,,06,33,158,,23,30,318,21,03,26,175,*7C
$GPGSV,3,3,11,14,17,132,,29,11,044,,13,02,316,*45
$GPRMC,100218.000,A,3045.2787,N,10355.6635,E,1.29,334.63,050412,,,A*61
$GPGGA,100219.000,3045.2791,N,10355.6629,E,1,3,3.84,543.1,M,-32.1,M,,*73
$GPGSA,A,2,32,23,16,,,,,,,,,,3.97,3.84,1.00*07
$GPGSV,3,1,11,16,74,242,13,30,72,014,,32,41,234,20,31,38,057,*72
$GPGSV,3,2,11,20,33,267,,06,33,158,,23,30,318,21,03,26,175,*7C
$GPGSV,3,3,11,14,17,132,,29,11,044,,13,02,316,*45
$GPRMC,100219.000,A,3045.2791,N,10355.6629,E,1.34,334.77,050412,,,A*63
$GPGGA,100220.000,3045.2792,N,10355.6626,E,1,3,3.84,543.0,M,-32.1,M,,*74
$GPGSA,A,2,32,23,16,,,,,,,,,,3.97,3.84,1.00*07
$GPGSV,3,1,11,16,74,242,15,30,72,014,,32,41,234,20,31,38,057,*74
$GPGSV,3,2,11,20,33,267,,06,33,158,,23,30,318,20,03,26,175,*7D
$GPGSV,3,3,11,14,17,132,,29,11,044,,13,02,316,*45
$GPRMC,100220.000,A,3045.2792,N,10355.6626,E,1.04,352.21,050412,,,A*65
$GPGGA,100221.000,3045.2791,N,10355.6621,E,6,3,3.84,542.9,M,-32.1,M,,*7E
$GPGSA,A,1,32,23,16,,,,,,,,,,3.97,3.84,1.00*04
$GPGSV,3,1,11,16,74,242,12,30,72,014,,32,41,234,20,31,38,057,*73
$GPGSV,3,2,11,20,33,267,,06,33,158,,23,30,318,20,03,26,175,*7D
$GPGSV,3,3,11,14,17,132,,29,11,044,,13,02,316,*45
$GPRMC,100221.000,V,,,,,0.63,351.09,050412,,,E*4F
$GPGGA,100222.000,3045.2790,N,10355.6615,E,1,3,3.84,542.9,M,-32.1,M,,*7C
$GPGSA,A,2,32,23,16,,,,,,,,,,3.97,3.84,1.00*07
$GPGSV,3,1,11,16,74,242,13,30,72,014,,32,41,234,21,31,38,057,*73
$GPGSV,3,2,11,20,33,267,,06,33,158,,23,30,318,20,03,26,175,*7D
$GPGSV,3,3,11,14,17,132,,29,11,044,,13,02,316,*45
$GPRMC,100222.000,A,3045.2790,N,10355.6615,E,0.36,351.09,050412,,,A*6C
$GPGGA,100223.000,3045.2791,N,10355.6609,E,6,3,3.84,542.9,M,-32.1,M,,*76
$GPGSA,A,1,32,23,16,,,,,,,,,,3.97,3.84,1.00*04
$GPGSV,3,1,11,16,74,242,15,30,72,014,,32,41,234,21,31,38,057,*75
$GPGSV,3,2,11,20,33,267,,06,33,158,,23,30,318,20,03,26,175,*7D
$GPGSV,3,3,11,14,17,132,,29,11,044,,13,02,316,*45
$GPRMC,100223.000,V,,,,,0.67,335.88,050412,,,E*42
$GPGGA,100224.000,3045.2792,N,10355.6601,E,1,3,3.84,542.8,M,-32.1,M,,*7C
$GPGSA,A,2,32,23,16,,,,,,,,,,3.97,3.84,1.00*07
$GPGSV,3,1,11,16,74,242,14,30,72,014,,32,41,234,21,31,38,057,*74
$GPGSV,3,2,11,20,33,267,,06,33,158,,23,30,318,20,03,26,175,*7D
$GPGSV,3,3,11,14,17,132,,29,11,044,,13,02,316,*45
$GPRMC,100224.000,A,3045.2792,N,10355.6601,E,0.72,316.54,050412,,,A*66
$GPGGA,100225.000,3045.2790,N,10355.6595,E,1,3,3.84,542.7,M,-32.1,M,,*7E
$GPGSA,A,2,32,23,16,,,,,,,,,,3.96,3.84,1.00*06
$GPGSV,3,1,11,16,74,242,15,30,72,014,,32,41,234,21,31,38,057,*75
$GPGSV,3,2,11,20,33,267,,06,33,158,,23,30,318,20,03,26,175,*7D
$GPGSV,3,3,11,14,17,132,,29,11,044,,13,02,316,*45
$GPRMC,100225.000,A,3045.2790,N,10355.6595,E,0.56,316.54,050412,,,A*6D
$GPGGA,100226.000,3045.2790,N,10355.6588,E,1,3,3.84,542.7,M,-32.1,M,,*71
$GPGSA,A,2,32,23,16,,,,,,,,,,3.97,3.84,1.00*07
$GPGSV,3,1,11,16,74,243,13,30,72,014,,32,41,234,21,31,38,057,*72
$GPGSV,3,2,11,20,33,267,,06,33,158,,23,30,318,20,03,26,175,*7D
$GPGSV,3,3,11,14,17,132,,29,11,044,,13,02,316,*45
$GPRMC,100226.000,A,3045.2790,N,10355.6588,E,0.77,274.97,050412,,,A*6B
$GPGGA,100227.000,3045.2790,N,10355.6581,E,1,3,3.84,542.6,M,-32.1,M,,*78
$GPGSA,A,2,32,23,16,,,,,,,,,,3.96,3.84,1.00*06
$GPGSV,3,1,11,16,74,243,12,30,72,014,,32,41,234,21,31,38,057,*73
$GPGSV,3,2,11,20,33,267,,06,33,158,,23,30,318,20,03,26,175,*7D
$GPGSV,3,3,11,14,17,132,,29,11,044,,13,02,316,*45
$GPRMC,100227.000,A,3045.2790,N,10355.6581,E,0.74,268.18,050412,,,A*6A
$GPGGA,100228.000,3045.2791,N,10355.6576,E,1,3,3.84,542.6,M,-32.1,M,,*7E
$GPGSA,A,2,32,23,16,,,,,,,,,,3.96,3.84,1.00*06
$GPGSV,3,1,11,16,74,243,15,30,72,014,,32,41,234,21,31,38,057,*74
$GPGSV,3,2,11,20,33,267,,06,33,158,,23,30,318,20,03,26,175,*7D
$GPGSV,3,3,11,14,17,132,,29,11,044,,13,02,316,*45
$GPRMC,100228.000,A,3045.2791,N,10355.6576,E,0.66,295.39,050412,,,A*6E
$GPGGA,100229.000,3045.2789,N,10355.6575,E,1,3,3.84,542.5,M,-32.1,M,,*76
$GPGSA,A,2,32,23,16,,,,,,,,,,3.96,3.84,1.00*06
$GPGSV,3,1,11,16,74,243,13,30,72,014,,32,41,234,22,31,38,057,*71
$GPGSV,3,2,11,20,33,267,,06,33,158,,23,30,318,20,03,26,175,*7D
$GPGSV,3,3,11,14,17,132,,29,11,044,,13,02,316,*45
$GPRMC,100229.000,A,3045.2789,N,10355.6575,E,0.16,295.39,050412,,,A*62
$GPGGA,100230.000,3045.2788,N,10355.6574,E,1,3,3.84,542.5,M,-32.1,M,,*7E
$GPGSA,A,2,32,23,16,,,,,,,,,,3.96,3.84,1.00*06
$GPGSV,3,1,11,16,74,243,15,30,72,014,,32,41,234,22,31,38,057,*77
$GPGSV,3,2,11,06,33,158,,20,32,266,,23,30,318,20,03,26,175,*7D
$GPGSV,3,3,11,14,17,132,,29,11,044,,13,02,316,*45
$GPRMC,100230.000,A,3045.2788,N,10355.6574,E,0.41,295.39,050412,,,A*68
$GPGGA,100231.000,3045.2788,N,10355.6572,E,1,3,3.84,542.4,M,-32.1,M,,*78
$GPGSA,A,2,32,23,16,,,,,,,,,,3.96,3.84,1.00*06
$GPGSV,3,1,11,16,74,243,14,30,72,014,,32,41,234,23,31,38,057,*77
$GPGSV,3,2,11,06,33,158,,20,32,266,,23,30,318,19,03,26,175,*77
$GPGSV,3,3,11,14,17,132,,29,11,044,,13,02,316,*45
$GPRMC,100231.000,A,3045.2788,N,10355.6572,E,0.37,295.39,050412,,,A*6E
$GPGGA,100232.000,3045.2788,N,10355.6569,E,1,3,3.84,542.4,M,-32.1,M,,*71
$GPGSA,A,2,32,23,16,,,,,,,,,,3.97,3.84,1.00*07
$GPGSV,3,1,11,16,74,243,16,30,72,014,,32,41,234,23,31,38,057,*75
$GPGSV,3,2,11,06,33,158,,20,32,266,,23,30,318,19,03,26,175,*77
$GPGSV,3,3,11,14,17,132,,29,11,044,,13,02,316,*45
$GPRMC,100232.000,A,3045.2788,N,10355.6569,E,0.37,295.39,050412,,,A*67
$GPGGA,100233.000,3045.2787,N,10355.6568,E,1,3,3.84,542.4,M,-32.1,M,,*7E
$GPGSA,A,2,32,23,16,,,,,,,,,,3.96,3.84,1.00*06
$GPGSV,3,1,11,16,74,243,17,30,72,014,,32,41,234,23,31,38,057,*74
$GPGSV,3,2,11,06,33,158,,20,32,266,,23,30,318,19,03,26,175,*77
$GPGSV,3,3,11,14,17,132,,29,11,044,,13,02,316,*45
$GPRMC,100233.000,A,3045.2787,N,10355.6568,E,0.33,295.39,050412,,,A*6C
$GPGGA,100234.000,3045.2786,N,10355.6568,E,1,3,3.84,542.4,M,-32.1,M,,*78
$GPGSA,A,2,32,23,16,,,,,,,,,,3.96,3.84,1.00*06
$GPGSV,3,1,11,16,74,243,15,30,72,014,,32,41,234,23,31,38,057,*76
$GPGSV,3,2,11,06,33,158,,20,32,266,,23,30,318,19,03,26,175,*77
$GPGSV,3,3,11,14,17,132,,29,11,044,,13,02,316,*45
$GPRMC,100234.000,A,3045.2786,N,10355.6568,E,0.40,295.39,050412,,,A*6E
$GPGGA,100235.000,3045.2785,N,10355.6566,E,1,3,3.84,542.4,M,-32.1,M,,*74
$GPGSA,A,2,32,23,16,,,,,,,,,,3.96,3.84,1.00*06
$GPGSV,3,1,11,16,74,243,16,30,72,014,,32,41,234,24,31,38,057,*72
$GPGSV,3,2,11,06,33,158,,20,32,266,,23,30,318,19,03,26,175,*77
$GPGSV,3,3,11,14,17,132,,29,11,044,,13,02,316,*45
$GPRMC,100235.000,A,3045.2785,N,10355.6566,E,0.75,203.06,050412,,,A*67
$GPGGA,100236.000,3045.2783,N,10355.6552,E,1,3,3.84,542.3,M,-32.1,M,,*71
$GPGSA,A,2,32,23,16,,,,,,,,,,3.96,3.84,1.00*06
$GPGSV,3,1,11,16,74,243,16,30,72,014,,32,41,234,24,31,38,057,*72
$GPGSV,3,2,11,06,33,158,,20,32,266,,23,30,318,19,03,26,175,*77
$GPGSV,3,3,11,14,17,132,,29,11,044,,13,02,316,*45
$GPRMC,100236.000,A,3045.2783,N,10355.6552,E,0.82,191.33,050412,,,A*63
$GPGGA,100237.000,3045.2783,N,10355.6537,E,1,3,3.83,542.1,M,-32.1,M,,*76
$GPGSA,A,2,32,23,16,,,,,,,,,,3.96,3.83,1.00*01
$GPGSV,3,1,11,16,74,243,16,30,72,014,,32,41,234,24,31,38,057,*72
$GPGSV,3,2,11,06,33,158,,20,32,266,,23,30,318,18,03,26,175,*76
$GPGSV,3,3,11,14,17,132,,29,11,044,,13,02,316,*45
$GPRMC,100237.000,A,3045.2783,N,10355.6537,E,0.84,192.57,050412,,,A*66
$GPGGA,100238.000,3045.2783,N,10355.6526,E,1,3,3.83,542.0,M,-32.1,M,,*78
$GPGSA,A,2,32,23,16,,,,,,,,,,3.96,3.83,1.00*01
$GPGSV,3,1,11,16,74,243,16,30,72,014,,32,41,234,24,31,38,057,*72
$GPGSV,3,2,11,06,33,158,,20,32,266,,23,30,318,18,03,26,175,*76
$GPGSV,3,3,11,14,17,132,,29,11,044,,13,02,316,*45
$GPRMC,100238.000,A,3045.2783,N,10355.6526,E,0.64,195.45,050412,,,A*63
$GPGGA,100239.000,3045.2783,N,10355.6526,E,1,3,3.83,541.9,M,-32.1,M,,*73
$GPGSA,A,2,32,23,16,,,,,,,,,,3.96,3.83,1.00*01
$GPGSV,3,1,11,16,74,243,16,30,72,014,,32,41,234,24,31,38,057,*72
$GPGSV,3,2,11,06,33,158,,20,32,266,,23,30,318,19,03,26,175,*77
$GPGSV,3,3,11,14,17,132,,29,11,044,,13,02,316,*45
$GPRMC,100239.000,A,3045.2783,N,10355.6526,E,0.57,195.45,050412,,,A*62
$GPGGA,100240.000,3045.2782,N,10355.6523,E,1,3,3.83,541.9,M,-32.1,M,,*79
$GPGSA,A,2,32,23,16,,,,,,,,,,3.96,3.83,1.00*01
$GPGSV,3,1,11,16,74,243,17,30,72,014,,32,41,234,24,31,38,057,*73
$GPGSV,3,2,11,06,33,158,,20,32,266,,23,30,318,19,03,26,175,*77
$GPGSV,3,3,11,14,17,132,,29,11,044,,13,02,316,*45
$GPRMC,100240.000,A,3045.2782,N,10355.6523,E,0.92,223.92,050412,,,A*65
$GPGGA,100241.000,3045.2782,N,10355.6513,E,1,3,3.83,541.8,M,-32.1,M,,*7A
$GPGSA,A,2,32,23,16,,,,,,,,,,3.96,3.83,1.00*01
$GPGSV,3,1,11,16,74,243,17,30,72,014,,32,41,234,24,31,38,058,*7C                                              
$GPGSV,3,2,11,06,33,158,,20,32,266,,23,30,318,19,03,26,175,*77                                                
$GPGSV,3,3,11,14,17,132,,29,11,044,,13,02,316,*45                                                             
$GPRMC,100241.000,A,3045.2782,N,10355.6513,E,0.99,231.07,050412,,,A*63                                        
$GPGGA,100242.000,3045.2782,N,10355.6506,E,1,3,3.83,541.7,M,-32.1,M,,*72                                      
$GPGSA,A,2,32,23,16,,,,,,,,,,3.96,3.83,1.00*01                                                                
$GPGSV,3,1,11,16,74,243,17,30,72,014,,32,41,234,24,31,38,058,*7C                                              
$GPGSV,3,2,11,06,33,158,,20,32,266,,23,30,318,19,03,26,175,*77                                                
$GPGSV,3,3,11,14,17,132,,29,11,044,,13,02,316,*45                                                             
$GPRMC,100242.000,A,3045.2782,N,10355.6506,E,1.01,242.83,050412,,,A*6C                                        
$GPGGA,100243.000,3045.2783,N,10355.6500,E,1,3,3.83,541.7,M,-32.1,M,,*74                                      
$GPGSA,A,2,32,23,16,,,,,,,,,,3.96,3.83,1.00*01                                                                
$GPGSV,3,1,11,16,74,243,17,30,72,014,,32,41,234,24,31,38,058,*7C                                              
$GPGSV,3,2,11,06,33,158,,20,32,266,,23,30,318,19,03,26,175,*77                                                
$GPGSV,3,3,11,14,17,132,,29,11,044,,13,02,316,*45                                                             
$GPRMC,100243.000,A,3045.2783,N,10355.6500,E,1.06,246.36,050412,,,A*67                                        
$GPGGA,100244.000,3045.2782,N,10355.6493,E,1,3,3.83,541.6,M,-32.1,M,,*78                                      
$GPGSA,A,2,32,23,16,,,,,,,,,,3.96,3.83,1.00*01                                                                
$GPGSV,3,1,11,16,74,243,17,30,72,014,,32,41,234,24,31,38,058,*7C                                              
$GPGSV,3,2,11,06,33,158,,20,32,266,,23,30,318,19,03,26,175,*77                                                
$GPGSV,3,3,11,14,17,132,,29,11,044,,13,02,316,*45                                                             
$GPRMC,100244.000,A,3045.2782,N,10355.6493,E,1.22,243.66,050412,,,A*6C                                        
$GPGGA,100245.000,3045.2783,N,10355.6483,E,1,3,3.83,541.6,M,-32.1,M,,*79
$GPGSA,A,2,32,23,16,,,,,,,,,,3.96,3.83,1.00*01
$GPGSV,3,1,11,16,74,243,17,30,72,014,,32,41,234,24,31,38,058,*7C
$GPGSV,3,2,11,06,33,158,,20,32,266,,23,30,318,19,03,26,175,*77
$GPGSV,3,3,11,14,17,132,,29,11,044,,13,02,316,*45
$GPRMC,100245.000,A,3045.2783,N,10355.6483,E,1.67,254.44,050412,,,A*6A
$GPGGA,100246.000,3045.2785,N,10355.6476,E,1,3,3.83,541.5,M,-32.1,M,,*75
$GPGSA,A,2,32,23,16,,,,,,,,,,3.96,3.83,1.00*01
$GPGSV,3,1,11,16,74,243,17,30,72,014,,32,41,234,24,31,38,058,*7C
$GPGSV,3,2,11,06,33,158,,20,32,266,,23,30,318,19,03,26,175,*77
$GPGSV,3,3,11,14,17,132,,29,11,044,,13,02,316,*45
$GPRMC,100246.000,A,3045.2785,N,10355.6476,E,1.69,266.07,050412,,,A*6D
$GPGGA,100247.000,3045.2788,N,10355.6473,E,1,3,3.83,541.5,M,-32.1,M,,*7C
$GPGSA,A,2,32,23,16,,,,,,,,,,3.96,3.83,1.00*01
$GPGSV,3,1,11,16,74,243,17,30,72,014,,32,41,234,24,31,38,058,*7C
$GPGSV,3,2,11,06,33,158,,20,32,266,,23,30,318,19,03,26,175,*77
$GPGSV,3,3,11,14,17,132,,29,11,044,,13,02,316,*45
$GPRMC,100247.000,A,3045.2788,N,10355.6473,E,1.42,278.51,050412,,,A*61
$GPGGA,100248.000,3045.2792,N,10355.6473,E,1,3,3.83,541.4,M,-32.1,M,,*79
$GPGSA,A,2,32,23,16,,,,,,,,,,3.96,3.83,1.00*01
$GPGSV,3,1,11,16,74,243,17,30,72,014,,32,41,234,24,31,38,058,*7C
$GPGSV,3,2,11,06,33,158,,20,32,266,,23,30,318,19,03,26,175,*77
$GPGSV,3,3,11,14,17,132,,29,11,044,,13,02,316,*45
$GPRMC,100248.000,A,3045.2792,N,10355.6473,E,1.42,285.51,050412,,,A*67
$GPGGA,100315.000,3045.2788,N,10355.6620,E,1,3,3.83,540.6,M,-32.1,M,,*7C
$GPGSA,A,2,32,23,16,,,,,,,,,,3.95,3.83,1.00*02
$GPGSV,3,1,11,16,75,244,18,30,72,014,,32,41,234,19,31,38,058,*7B
$GPGSV,3,2,11,06,33,158,,20,32,266,,23,31,318,22,03,26,175,*7E
$GPGSV,3,3,11,14,17,132,,29,11,044,,13,02,316,*45
$GPRMC,100315.000,A,3045.2788,N,10355.6620,E,1.44,106.54,050412,,,A*6A
$GPGGA,100316.000,3045.2785,N,10355.6620,E,1,3,3.82,540.6,M,-32.1,M,,*73
$GPGSA,A,2,32,23,16,,,,,,,,,,3.95,3.82,1.00*03
$GPGSV,3,1,11,16,75,244,18,30,72,014,,32,41,234,19,31,38,058,*7B
$GPGSV,3,2,11,06,33,158,,20,32,266,,23,31,318,22,03,26,175,*7E
$GPGSV,3,3,11,14,17,132,,29,11,044,,13,02,316,*45
$GPRMC,100316.000,A,3045.2785,N,10355.6620,E,1.48,109.08,050412,,,A*6E
$GPGGA,100317.000,3045.2781,N,10355.6622,E,1,3,3.82,540.6,M,-32.1,M,,*74
$GPGSA,A,2,32,23,16,,,,,,,,,,3.95,3.82,1.00*03
$GPGSV,3,1,11,16,75,244,18,30,72,014,,32,41,234,19,31,38,058,*7B
$GPGSV,3,2,11,06,33,158,,20,32,266,,23,31,318,22,03,27,175,*7F
$GPGSV,3,3,11,14,17,132,,29,11,044,,13,02,316,*45
$GPRMC,100317.000,A,3045.2781,N,10355.6622,E,1.65,110.11,050412,,,A*66
$GPGGA,100318.000,3045.2778,N,10355.6624,E,1,3,3.82,540.6,M,-32.1,M,,*7B
$GPGSA,A,2,32,23,16,,,,,,,,,,3.95,3.82,1.00*03
$GPGSV,3,1,11,16,75,244,19,30,72,014,,32,41,234,19,31,38,058,*7A
$GPGSV,3,2,11,06,33,158,,20,32,266,,23,31,318,23,03,27,175,*7E
$GPGSV,3,3,11,14,17,132,,29,11,044,,13,02,316,*45
$GPRMC,100318.000,A,3045.2778,N,10355.6624,E,1.61,125.22,050412,,,A*6B
$GPGGA,100319.000,3045.2776,N,10355.6624,E,1,3,3.82,540.6,M,-32.1,M,,*74
$GPGSA,A,2,32,23,16,,,,,,,,,,3.95,3.82,1.00*03
$GPGSV,3,1,11,16,75,244,19,30,72,014,,32,41,234,19,31,38,058,*7A
$GPGSV,3,2,11,06,33,158,,20,32,266,,23,31,318,21,03,27,175,*7C
$GPGSV,3,3,11,14,17,132,,29,11,044,,13,02,316,*45
$GPRMC,100319.000,A,3045.2776,N,10355.6624,E,1.37,126.13,050412,,,A*66
$GPGGA,100320.000,3045.2775,N,10355.6624,E,1,3,3.82,540.6,M,-32.1,M,,*7D
$GPGSA,A,2,32,23,16,,,,,,,,,,3.95,3.82,1.00*03
$GPGSV,3,1,11,16,75,244,19,30,72,014,,32,41,234,19,31,38,058,*7A
$GPGSV,3,2,11,06,33,158,,20,32,266,,23,31,318,22,03,27,175,*7F
$GPGSV,3,3,11,14,17,132,,29,11,044,,13,02,316,*45
$GPRMC,100320.000,A,3045.2775,N,10355.6624,E,0.99,127.25,050412,,,A*6E
$GPGGA,100321.000,3045.2776,N,10355.6623,E,1,3,3.82,540.6,M,-32.1,M,,*78
$GPGSA,A,2,32,23,16,,,,,,,,,,3.95,3.82,1.00*03
$GPGSV,3,1,11,16,75,244,19,30,72,014,,32,41,234,19,31,38,058,*7A
$GPGSV,3,2,11,06,33,158,,20,32,266,,23,31,318,23,03,27,175,*7E
$GPGSV,3,3,11,14,17,132,,29,11,044,,13,02,316,*45
$GPRMC,100321.000,A,3045.2776,N,10355.6623,E,0.94,114.33,050412,,,A*61
$GPGGA,100322.000,3045.2776,N,10355.6621,E,1,3,3.82,540.6,M,-32.1,M,,*79
$GPGSA,A,2,32,23,16,,,,,,,,,,3.95,3.82,1.00*03
$GPGSV,3,1,11,16,75,244,19,30,72,014,,32,41,234,20,31,38,058,*70
$GPGSV,3,2,11,06,33,158,,20,32,266,,23,31,318,22,03,27,175,*7F
$GPGSV,3,3,11,14,17,132,,29,11,044,,13,02,316,*45
$GPRMC,100322.000,A,3045.2776,N,10355.6621,E,0.71,115.48,050412,,,A*66
$GPGGA,100326.000,3045.2766,N,10355.6605,E,1,3,3.82,540.5,M,-32.1,M,,*79
$GPGSA,A,2,32,23,16,,,,,,,,,,3.95,3.82,1.00*03
$GPGSV,3,1,11,16,75,244,20,30,72,014,,32,41,234,22,31,38,058,*78
$GPGSV,3,2,11,06,33,158,,20,32,266,,23,31,318,23,03,27,175,*7E
$GPGSV,3,3,11,14,17,132,,29,11,044,,13,02,316,*45
$GPRMC,100326.000,A,3045.2766,N,10355.6605,E,0.93,162.82,050412,,,A*6F
$GPGGA,100327.000,3045.2766,N,10355.6601,E,1,3,3.82,540.5,M,-32.1,M,,*7C
$GPGSA,A,2,32,23,16,,,,,,,,,,3.95,3.82,1.00*03
$GPGSV,3,1,11,16,75,244,21,30,72,014,,32,41,234,22,31,38,058,*79
$GPGSV,3,2,11,06,33,158,,20,32,266,,23,31,318,23,03,27,175,*7E
$GPGSV,3,3,11,14,17,132,,29,11,044,,13,02,317,*44
$GPRMC,100327.000,A,3045.2766,N,10355.6601,E,0.38,162.82,050412,,,A*6B
$GPGGA,100328.000,3045.2765,N,10355.6599,E,1,3,3.82,540.5,M,-32.1,M,,*72
$GPGSA,A,2,32,23,16,,,,,,,,,,3.95,3.82,1.00*03
$GPGSV,3,1,11,16,75,244,21,30,72,014,,32,41,234,22,31,38,058,*79
$GPGSV,3,2,11,06,33,158,,20,32,266,,23,31,318,23,03,27,175,*7E
$GPGSV,3,3,11,14,16,132,,29,11,044,,13,02,317,*45
$GPRMC,100328.000,A,3045.2765,N,10355.6599,E,0.43,162.82,050412,,,A*69
$GPGGA,100329.000,3045.2765,N,10355.6599,E,1,3,3.82,540.5,M,-32.1,M,,*73
$GPGSA,A,2,32,23,16,,,,,,,,,,3.95,3.82,1.00*03
$GPGSV,3,1,11,16,75,244,21,30,72,014,,32,41,234,22,31,38,058,*79
$GPGSV,3,2,11,06,33,158,,20,32,266,,23,31,318,23,03,27,175,*7E
$GPGSV,3,3,11,14,16,132,,29,11,044,,13,02,317,*45
$GPRMC,100329.000,A,3045.2765,N,10355.6599,E,0.40,162.82,050412,,,A*6B
$GPGGA,100330.000,3045.2764,N,10355.6599,E,1,3,3.82,540.5,M,-32.1,M,,*7A
$GPGSA,A,2,32,23,16,,,,,,,,,,3.95,3.82,1.00*03
$GPGSV,3,1,11,16,75,245,21,30,72,014,,32,41,234,22,31,38,058,*78
$GPGSV,3,2,11,06,33,158,,20,32,266,,23,31,318,24,03,27,175,*79
$GPGSV,3,3,11,14,16,132,,29,11,044,,13,02,317,*45
$GPRMC,100330.000,A,3045.2764,N,10355.6599,E,0.36,162.82,050412,,,A*63
$GPGGA,100331.000,3045.2763,N,10355.6600,E,1,3,3.82,540.5,M,-32.1,M,,*7F
$GPGSA,A,2,32,23,16,,,,,,,,,,3.95,3.82,1.00*03
$GPGSV,3,1,11,16,75,245,21,30,72,014,,32,41,234,23,31,38,058,*79
$GPGSV,3,2,11,06,33,158,,20,32,266,,23,31,318,23,03,27,175,*7E
$GPGSV,3,3,11,14,16,132,,29,11,044,,13,02,317,*45
$GPRMC,100331.000,A,3045.2763,N,10355.6600,E,0.03,162.82,050412,,,A*60
$GPGGA,100332.000,3045.2763,N,10355.6600,E,1,3,3.82,540.5,M,-32.1,M,,*7C
$GPGSA,A,2,32,23,16,,,,,,,,,,3.95,3.82,1.00*03
$GPGSV,3,1,11,16,75,245,21,30,72,014,,32,41,234,23,31,38,058,*79
$GPGSV,3,2,11,06,33,158,,20,32,266,,23,31,318,23,03,27,175,*7E
$GPGSV,3,3,11,14,16,132,,29,11,044,,13,02,317,*45
$GPRMC,100332.000,A,3045.2763,N,10355.6600,E,0.32,162.82,050412,,,A*61
$GPGGA,100333.000,3045.2764,N,10355.6600,E,1,3,3.82,540.5,M,-32.1,M,,*7A
$GPGSA,A,2,32,23,16,,,,,,,,,,3.95,3.82,1.00*03
$GPGSV,3,1,11,16,75,245,21,30,72,014,,32,41,234,23,31,38,058,*79
$GPGSV,3,2,11,06,33,158,,20,32,266,,23,31,318,22,03,27,175,*7F
$GPGSV,3,3,11,14,16,132,,29,11,044,,13,02,317,*45
$GPRMC,100333.000,A,3045.2764,N,10355.6600,E,0.36,162.82,050412,,,A*63
$GPGGA,100334.000,3045.2765,N,10355.6599,E,6,3,3.82,540.5,M,-32.1,M,,*78
$GPGSA,A,1,32,23,16,,,,,,,,,,3.95,3.82,1.00*00
$GPGSV,3,1,11,16,75,245,21,30,72,014,,32,41,234,23,31,38,058,*79
$GPGSV,3,2,11,06,33,158,,20,32,266,,23,31,318,24,03,27,175,*79
$GPGSV,3,3,11,14,16,132,,29,11,044,,13,02,317,*45
$GPRMC,100334.000,V,,,,,0.21,162.82,050412,,,E*4D
$GPGGA,100335.000,3045.2765,N,10355.6600,E,1,3,3.82,540.5,M,-32.1,M,,*7D
$GPGSA,A,2,32,23,16,,,,,,,,,,3.95,3.82,1.00*03
$GPGSV,3,1,11,16,75,245,22,30,72,014,,32,41,234,23,31,38,058,*7A
$GPGSV,3,2,11,06,33,158,,20,32,266,,23,31,318,24,03,27,175,*79
$GPGSV,3,3,11,14,16,132,,29,11,044,,13,02,317,*45
$GPRMC,100335.000,A,3045.2765,N,10355.6600,E,0.52,162.82,050412,,,A*66
$GPGGA,100336.000,3045.2763,N,10355.6601,E,1,3,3.82,540.5,M,-32.1,M,,*79
$GPGSA,A,2,32,23,16,,,,,,,,,,3.95,3.82,1.00*03
$GPGSV,3,1,11,16,75,245,22,30,72,014,,32,41,234,23,31,38,058,*7A
$GPGSV,3,2,11,06,33,158,,20,32,266,,23,31,318,25,03,27,175,*78
$GPGSV,3,3,11,14,16,132,,29,11,044,,13,02,317,*45
$GPRMC,100336.000,A,3045.2763,N,10355.6601,E,0.25,162.82,050412,,,A*62
$GPGGA,100337.000,3045.2763,N,10355.6600,E,1,3,3.82,540.5,M,-32.1,M,,*79
$GPGSA,A,2,32,23,16,,,,,,,,,,3.95,3.82,1.00*03
$GPGSV,3,1,11,16,75,245,22,30,72,014,,32,41,234,23,31,38,058,*7A
$GPGSV,3,2,11,06,33,158,,20,32,266,,23,31,318,25,03,27,175,*78
$GPGSV,3,3,11,14,16,132,,29,11,044,,13,02,317,*45
$GPRMC,100337.000,A,3045.2763,N,10355.6600,E,0.21,162.82,050412,,,A*66
$GPGGA,100338.000,3045.2763,N,10355.6600,E,1,3,3.82,540.5,M,-32.1,M,,*76
$GPGSA,A,2,32,23,16,,,,,,,,,,3.95,3.82,1.00*03
$GPGSV,3,1,11,16,75,245,22,30,72,014,,32,41,234,23,31,38,058,*7A
$GPGSV,3,2,11,06,33,158,,20,32,266,,23,31,318,25,03,27,175,*78
$GPGSV,3,3,11,14,16,132,,29,11,044,,13,02,317,*45
$GPRMC,100338.000,A,3045.2763,N,10355.6600,E,0.13,162.82,050412,,,A*68
$GPGGA,100339.000,3045.2762,N,10355.6600,E,1,3,3.82,540.5,M,-32.1,M,,*76
$GPGSA,A,2,32,23,16,,,,,,,,,,3.95,3.82,1.00*03
$GPGSV,3,1,11,16,75,245,22,30,72,014,,32,41,234,23,31,38,058,*7A
$GPGSV,3,2,11,06,33,158,,20,32,266,,23,31,318,25,03,27,175,*78
$GPGSV,3,3,11,14,16,132,,29,11,044,,13,02,317,*45
$GPRMC,100339.000,A,3045.2762,N,10355.6600,E,0.23,162.82,050412,,,A*6B
$GPGGA,100340.000,3045.2762,N,10355.6600,E,1,3,3.82,540.5,M,-32.1,M,,*78
$GPGSA,A,2,32,23,16,,,,,,,,,,3.95,3.82,1.00*03
$GPGSV,3,1,11,16,75,245,22,30,72,014,,32,41,234,23,31,38,058,*7A
$GPGSV,3,2,11,06,33,158,,20,32,266,,23,31,318,25,03,27,175,*78
$GPGSV,3,3,11,14,16,132,,29,11,044,,13,02,317,*45
$GPRMC,100340.000,A,3045.2762,N,10355.6600,E,0.84,306.79,050412,,,A*6C
$GPGGA,100341.000,3045.2761,N,10355.6600,E,1,3,3.82,540.5,M,-32.1,M,,*7A
$GPGSA,A,2,32,23,16,,,,,,,,,,3.95,3.82,1.00*03
$GPGSV,3,1,11,16,75,245,22,30,72,014,,32,41,234,23,31,38,058,*7A
$GPGSV,3,2,11,06,33,158,,20,32,266,,23,31,318,25,03,27,175,*78
$GPGSV,3,3,11,14,16,132,,29,11,044,,13,02,317,*45
$GPRMC,100341.000,A,3045.2761,N,10355.6600,E,0.39,306.79,050412,,,A*68
$GPGGA,100342.000,3045.2763,N,10355.6598,E,1,3,3.82,540.5,M,-32.1,M,,*79
$GPGSA,A,2,32,23,16,,,,,,,,,,3.95,3.82,1.00*03
$GPGSV,3,1,11,16,75,245,24,30,72,014,,32,41,234,23,31,38,058,*7C
$GPGSV,3,2,11,06,33,158,,20,32,266,,23,31,318,25,03,27,175,*78
$GPGSV,3,3,11,14,16,132,,29,11,044,,13,02,317,*45
$GPRMC,100342.000,A,3045.2763,N,10355.6598,E,1.18,304.11,050412,,,A*65
$GPGGA,100343.000,3045.2763,N,10355.6598,E,1,3,3.82,540.5,M,-32.1,M,,*78
$GPGSA,A,2,32,23,16,,,,,,,,,,3.95,3.82,1.00*03
$GPGSV,3,1,11,16,75,245,23,30,72,014,,32,41,234,23,31,38,058,*7B
$GPGSV,3,2,11,06,33,158,,20,32,266,,23,31,318,25,03,27,175,*78
$GPGSV,3,3,11,14,16,132,,29,10,044,,13,02,317,*44
$GPRMC,100343.000,A,3045.2763,N,10355.6598,E,0.68,303.17,050412,,,A*63
$GPGGA,100344.000,3045.2762,N,10355.6598,E,1,3,3.82,540.5,M,-32.1,M,,*7E
$GPGSA,A,2,32,23,16,,,,,,,,,,3.94,3.82,1.00*02
$GPGSV,3,1,11,16,75,245,23,30,72,014,,32,41,234,23,31,38,058,*7B
$GPGSV,3,2,11,06,33,158,,20,32,266,,23,31,318,25,03,27,175,*78
$GPGSV,3,3,11,14,16,132,,29,10,044,,13,02,317,*44
$GPRMC,100344.000,A,3045.2762,N,10355.6598,E,0.68,288.38,050412,,,A*6A
